{"type":"FeatureCollection","totalFeatures":100,"features":[{"type":"Feature","id":"vrd_esv_arb_rem.47","geometry":{"type":"Point","coordinates":[6.16846418,49.11338823]},"geometry_name":"the_geom","properties":{"fid":47,"id":31.33,"type":"Privé","nom_commun":"Sapin de Douglas (Pin d'Orégon)","origine":"Côte Ouest de l'amérique du Nord","nom_latin":"Pseudotsuga menziesii","auteur":"(Mirb.) Franco","lieu":"Palais du Gouverneur","parcelle":39,"longitude":6.168464182,"latitude":49.11338819,"diametre":"2.1","hauteur":20,"age_estimation":"100 ans","commentaire":null,"numero":null}},{"type":"Feature","id":"vrd_esv_arb_rem.48","geometry":{"type":"Point","coordinates":[6.16846418,49.11338823]},"geometry_name":"the_geom","properties":{"fid":48,"id":31.34,"type":"Privé","nom_commun":"Châtaignier commun","origine":"Asie mineure, Caucase, Bassin méditerranéen","nom_latin":"Castanea sativa","auteur":"Mill.","lieu":"Palais du Gouverneur","parcelle":39,"longitude":6.168464182,"latitude":49.11338819,"diametre":"2.65","hauteur":10,"age_estimation":"100 ans","commentaire":null,"numero":null}},{"type":"Feature","id":"vrd_esv_arb_rem.49","geometry":{"type":"Point","coordinates":[6.16846418,49.11338823]},"geometry_name":"the_geom","properties":{"fid":49,"id":31.35,"type":"Privé","nom_commun":"Févier","origine":"Amérique du Nord","nom_latin":"Gleditsia aquatica","auteur":"Marshall","lieu":"Palais du Gouverneur","parcelle":39,"longitude":6.168464182,"latitude":49.11338819,"diametre":"3.15","hauteur":20,"age_estimation":"100 ans","commentaire":null,"numero":null}},{"type":"Feature","id":"vrd_esv_arb_rem.50","geometry":{"type":"Point","coordinates":[6.16846418,49.11338823]},"geometry_name":"the_geom","properties":{"fid":50,"id":31.36,"type":"Privé","nom_commun":"Tilleul argenté (Tilleul petiolaris)","origine":"Est du bassin méditerranéen","nom_latin":"(Tilia petiolaris) Tilia tomentosa","auteur":"Moench","lieu":"Palais du Gouverneur","parcelle":39,"longitude":6.168464182,"latitude":49.11338819,"diametre":"2.25","hauteur":20,"age_estimation":"100 ans","commentaire":null,"numero":null}},{"type":"Feature","id":"vrd_esv_arb_rem.51","geometry":{"type":"Point","coordinates":[6.16846418,49.11338823]},"geometry_name":"the_geom","properties":{"fid":51,"id":31.37,"type":"Privé","nom_commun":"Virgilier à bois jaune","origine":"Sud-est des Etats-Unis","nom_latin":"Cladrastis kentukea (Cladastris lutea)","auteur":"(Dum.Cours.) Rudd","lieu":"Palais du Gouverneur","parcelle":39,"longitude":6.168464182,"latitude":49.11338819,"diametre":"2.5","hauteur":15,"age_estimation":"100 ans","commentaire":null,"numero":null}},{"type":"Feature","id":"vrd_esv_arb_rem.52","geometry":{"type":"Point","coordinates":[6.16846418,49.11338823]},"geometry_name":"the_geom","properties":{"fid":52,"id":31.38,"type":"Privé","nom_commun":"Frêne pleureur","origine":"Europe (Horticole)","nom_latin":"Fraxinus excelsior 'Pendula'","auteur":"L.","lieu":"Palais du Gouverneur","parcelle":39,"longitude":6.168464182,"latitude":49.11338819,"diametre":"1","hauteur":10,"age_estimation":"100 ans","commentaire":null,"numero":null}},{"type":"Feature","id":"vrd_esv_arb_rem.53","geometry":{"type":"Point","coordinates":[6.16846418,49.11338823]},"geometry_name":"the_geom","properties":{"fid":53,"id":31.39,"type":"Privé","nom_commun":"Sapin de Nordmann","origine":"Caucase","nom_latin":"Abies nordmanniana","auteur":"(Steven) Spach","lieu":"Palais du Gouverneur","parcelle":39,"longitude":6.168464182,"latitude":49.11338819,"diametre":"1.75","hauteur":25,"age_estimation":"100 ans","commentaire":null,"numero":null}},{"type":"Feature","id":"vrd_esv_arb_rem.54","geometry":{"type":"Point","coordinates":[6.16846418,49.11338823]},"geometry_name":"the_geom","properties":{"fid":54,"id":31.4,"type":"Privé","nom_commun":"Epinette blanche","origine":"Canada","nom_latin":"Picea glauca","auteur":"(Moench) Voss","lieu":"Palais du Gouverneur","parcelle":39,"longitude":6.168464182,"latitude":49.11338819,"diametre":"1.1","hauteur":20,"age_estimation":"100 ans","commentaire":null,"numero":null}},{"type":"Feature","id":"vrd_esv_arb_rem.55","geometry":{"type":"Point","coordinates":[6.16846418,49.11338823]},"geometry_name":"the_geom","properties":{"fid":55,"id":31.41,"type":"Privé","nom_commun":"Pin noir d'Autriche","origine":"Europe méridionale, Asie mineure, Afrique du Nord-ouest","nom_latin":"Pinus nigra","auteur":"J.F.Arnold","lieu":"Palais du Gouverneur","parcelle":39,"longitude":6.168464182,"latitude":49.11338819,"diametre":"2.05","hauteur":20,"age_estimation":"100 ans","commentaire":null,"numero":null}},{"type":"Feature","id":"vrd_esv_arb_rem.56","geometry":{"type":"Point","coordinates":[6.16846418,49.11338823]},"geometry_name":"the_geom","properties":{"fid":56,"id":31.43,"type":"Privé","nom_commun":"Epicéa bleu du colorado","origine":"Amérique du Nord","nom_latin":"Picea pungens","auteur":"Engelm.","lieu":"Palais du Gouverneur","parcelle":39,"longitude":6.168464182,"latitude":49.11338819,"diametre":"1.6","hauteur":10,"age_estimation":"70 ans","commentaire":null,"numero":null}},{"type":"Feature","id":"vrd_esv_arb_rem.59","geometry":{"type":"Point","coordinates":[6.16957985,49.1145457]},"geometry_name":"the_geom","properties":{"fid":59,"id":31.53,"type":"R","nom_commun":"Platane commun","origine":"Europe (Hybride naturel entre Platanes d'occident et d'Orient)","nom_latin":"Platanus acerifolia","auteur":"(Aiton) Willd.","lieu":"chapelle des Templiers","parcelle":61,"longitude":6.169579853,"latitude":49.11454566,"diametre":"3.93","hauteur":25,"age_estimation":"130 ans","commentaire":null,"numero":null}},{"type":"Feature","id":"vrd_esv_arb_rem.60","geometry":{"type":"Point","coordinates":[6.16953365,49.11446596]},"geometry_name":"the_geom","properties":{"fid":60,"id":31.54,"type":"R","nom_commun":"Platane commun","origine":"Europe (Hybride naturel entre Platanes d'occident et d'Orient)","nom_latin":"Platanus acerifolia","auteur":"(Aiton) Willd.","lieu":"chapelle des Templiers","parcelle":61,"longitude":6.169533646,"latitude":49.11446592,"diametre":"4.56","hauteur":30,"age_estimation":"130 ans","commentaire":null,"numero":null}},{"type":"Feature","id":"vrd_esv_arb_rem.61","geometry":{"type":"Point","coordinates":[6.1613778,49.10456388]},"geometry_name":"the_geom","properties":{"fid":61,"id":32.01,"type":"R","nom_commun":"Arbre aux quarantes écus","origine":"Chine du Sud","nom_latin":"Ginkgo biloba","auteur":"L.","lieu":"Jardin Botanique","parcelle":0,"longitude":6.161377801,"latitude":49.10456384,"diametre":"4.4","hauteur":15,"age_estimation":"150 ans","commentaire":"Arbres implantés à la création du","numero":null}},{"type":"Feature","id":"vrd_esv_arb_rem.62","geometry":{"type":"Point","coordinates":[6.16015987,49.10524522]},"geometry_name":"the_geom","properties":{"fid":62,"id":32.03,"type":"R","nom_commun":"Séquoïa géant","origine":"Sierra Nevada (californie)","nom_latin":"Sequoïadendron giganteum","auteur":"(Lindl.)J.Buchholz","lieu":"Jardin Botanique","parcelle":0,"longitude":6.16015987,"latitude":49.10524518,"diametre":"5.97","hauteur":40,"age_estimation":"150 ans","commentaire":"JardinBotanique, en 1866","numero":null}},{"type":"Feature","id":"vrd_esv_arb_rem.63","geometry":{"type":"Point","coordinates":[6.16016844,49.10451596]},"geometry_name":"the_geom","properties":{"fid":63,"id":32.04,"type":"R","nom_commun":"Séquoïa toujours vert","origine":"Californie","nom_latin":"Sequoïa sempervirens","auteur":"(D.Don)Endl.","lieu":"Jardin Botanique","parcelle":0,"longitude":6.16016844,"latitude":49.10451592,"diametre":"3.3","hauteur":30,"age_estimation":"150 ans","commentaire":null,"numero":null}},{"type":"Feature","id":"vrd_esv_arb_rem.64","geometry":{"type":"Point","coordinates":[6.15940389,49.10468951]},"geometry_name":"the_geom","properties":{"fid":64,"id":32.05,"type":"R","nom_commun":"Cyprès chauve","origine":"Amérique du Nord (Louisiane)","nom_latin":"Taxodium distichum","auteur":"L.","lieu":"Jardin Botanique","parcelle":0,"longitude":6159327983,"latitude":49.1046649,"diametre":"5.81","hauteur":15,"age_estimation":"150 ans","commentaire":null,"numero":null}},{"type":"Feature","id":"vrd_esv_arb_rem.65","geometry":{"type":"Point","coordinates":[6.16010398,49.10566077]},"geometry_name":"the_geom","properties":{"fid":65,"id":32.06,"type":"R","nom_commun":"Plaqueminier du Levant","origine":"Est Américain","nom_latin":"Diospyros virginiana","auteur":"L.","lieu":"Jardin Botanique","parcelle":0,"longitude":6.160103981,"latitude":49.10566073,"diametre":"2.83","hauteur":20,"age_estimation":"150 ans","commentaire":null,"numero":null}},{"type":"Feature","id":"vrd_esv_arb_rem.66","geometry":{"type":"Point","coordinates":[6.16007663,49.10479748]},"geometry_name":"the_geom","properties":{"fid":66,"id":32.07,"type":"R","nom_commun":"Noyer  noir d'Amérique","origine":"Nord-est Américain (Texas, Minnesota, Ontario, Québec)","nom_latin":"Juglans nigra","auteur":"L.","lieu":"Jardin Botanique","parcelle":0,"longitude":6.160076633,"latitude":49.10479744,"diametre":"4.08","hauteur":30,"age_estimation":"150 ans","commentaire":null,"numero":null}},{"type":"Feature","id":"vrd_esv_arb_rem.67","geometry":{"type":"Point","coordinates":[6.15970197,49.10735607]},"geometry_name":"the_geom","properties":{"fid":67,"id":32.08,"type":"R","nom_commun":"Hêtre rouge","origine":"Europe (horticole)","nom_latin":"Fagus sylvatica 'Purpurea'","auteur":"L.","lieu":"Jardin Botanique","parcelle":0,"longitude":6159651194,"latitude":49.10716718,"diametre":"4.4","hauteur":20,"age_estimation":"150 ans","commentaire":null,"numero":null}},{"type":"Feature","id":"vrd_esv_arb_rem.73","geometry":{"type":"Point","coordinates":[6.15959934,49.10485657]},"geometry_name":"the_geom","properties":{"fid":73,"id":32.14,"type":"R","nom_commun":"Muscadier de Californie","origine":"Californie","nom_latin":"Torreya californica","auteur":"Torr.","lieu":"Jardin Botanique","parcelle":0,"longitude":6159600525,"latitude":49.10485546,"diametre":"3.3","hauteur":8,"age_estimation":"150 ans","commentaire":null,"numero":null}},{"type":"Feature","id":"vrd_esv_arb_rem.74","geometry":{"type":"Point","coordinates":[6.16043585,49.10462565]},"geometry_name":"the_geom","properties":{"fid":74,"id":32.15,"type":"R","nom_commun":"Arbre au caramel","origine":"Asie","nom_latin":"Cercidiphyllum japonicum","auteur":"Siebold & Zucc. ex J.J.Hoffm. & J.H.Schult.bis","lieu":"Jardin Botanique","parcelle":0,"longitude":6.160435854,"latitude":49.10462561,"diametre":"1.57","hauteur":8,"age_estimation":"50 ans","commentaire":null,"numero":null}},{"type":"Feature","id":"vrd_esv_arb_rem.80","geometry":{"type":"Point","coordinates":[6.16434056,49.10588685]},"geometry_name":"the_geom","properties":{"fid":80,"id":32.21,"type":"A","nom_commun":"Platane commun","origine":"Europe (Hybride naturel entre Platanes d'occident et d'Orient)","nom_latin":"Platanus acerifolia","auteur":"(Aiton) Willd.","lieu":"Rue Charles Pêtre/av de Nancy","parcelle":0,"longitude":6.164340561,"latitude":49.10588681,"diametre":"4.4","hauteur":20,"age_estimation":"90 ans","commentaire":null,"numero":null}},{"type":"Feature","id":"vrd_esv_arb_rem.81","geometry":{"type":"Point","coordinates":[6.17943286,49.0846094]},"geometry_name":"the_geom","properties":{"fid":81,"id":33.01,"type":"R","nom_commun":"Saule blanc","origine":"Régions tempérées et froides d'Europe et d'Asie","nom_latin":"Salix alba","auteur":"L.","lieu":"promenade de la seille (Magny)","parcelle":25,"longitude":6.179432861,"latitude":49.08460936,"diametre":"6.91","hauteur":10,"age_estimation":"150 ans","commentaire":null,"numero":null}},{"type":"Feature","id":"vrd_esv_arb_rem.83","geometry":{"type":"Point","coordinates":[6.17376024,49.09666406]},"geometry_name":"the_geom","properties":{"fid":83,"id":33.03,"type":"R","nom_commun":"Noyer du caucase","origine":"Caucase, Nord de l'Iran","nom_latin":"Pterocarya fraxinifolia","auteur":"(Poir.) Spach","lieu":"parc st Chrétienne","parcelle":0,"longitude":6.173760241,"latitude":49.09666402,"diametre":"2.67","hauteur":10,"age_estimation":"80 ans","commentaire":null,"numero":null}},{"type":"Feature","id":"vrd_esv_arb_rem.84","geometry":{"type":"Point","coordinates":[6.17351724,49.0960767]},"geometry_name":"the_geom","properties":{"fid":84,"id":33.04,"type":"R","nom_commun":"Mélèze","origine":"Europe centrale et occidentale","nom_latin":"Larix décidua","auteur":"Mill.","lieu":"parc st Chrétienne","parcelle":0,"longitude":6.173517238,"latitude":49.09607666,"diametre":"1.88","hauteur":10,"age_estimation":"80 ans","commentaire":null,"numero":null}},{"type":"Feature","id":"vrd_esv_arb_rem.85","geometry":{"type":"Point","coordinates":[6.20029997,49.0698481]},"geometry_name":"the_geom","properties":{"fid":85,"id":34.01,"type":"R","nom_commun":"Chêne pédonculé","origine":"Europe","nom_latin":"Quercus robur","auteur":"L.","lieu":"Promenade des Cents Jours","parcelle":2,"longitude":6.200299971,"latitude":49.06984806,"diametre":"4.56","hauteur":15,"age_estimation":"250 ans","commentaire":"Sans doute le doyen de Metz","numero":null}},{"type":"Feature","id":"vrd_esv_arb_rem.4","geometry":{"type":"Point","coordinates":[6.17269056,49.12334379]},"geometry_name":"the_geom","properties":{"fid":4,"id":13.04,"type":"Privé","nom_commun":"Marronnier d'Inde","origine":"Europe","nom_latin":"Aesculus hippocastanum","auteur":"L.","lieu":"Lycée Fabert (cloître)","parcelle":77,"longitude":6.172690561,"latitude":49.12334375,"diametre":"3.14","hauteur":25,"age_estimation":"180 ans","commentaire":"Contemporain de la création du lycée","numero":null}},{"type":"Feature","id":"vrd_esv_arb_rem.5","geometry":{"type":"Point","coordinates":[6.16919552,49.12208059]},"geometry_name":"the_geom","properties":{"fid":5,"id":13.05,"type":"A","nom_commun":"Micoucoulier de Provence","origine":"Europe du Sud et Asie mineure","nom_latin":"Celtis australis","auteur":"L.","lieu":"Square du Luxembourg","parcelle":14,"longitude":6.169195522,"latitude":49.12208055,"diametre":"2.35","hauteur":15,"age_estimation":"70 ans","commentaire":null,"numero":null}},{"type":"Feature","id":"vrd_esv_arb_rem.6","geometry":{"type":"Point","coordinates":[6.18025664,49.11662854]},"geometry_name":"the_geom","properties":{"fid":6,"id":21.01,"type":"R","nom_commun":"Platane commun","origine":"Europe (Hybride naturel entre Platanes d'occident et d'Orient)","nom_latin":"Platanus acerifolia","auteur":"(Aiton) Willd.","lieu":"Place St Simplice","parcelle":0,"longitude":6.180256642,"latitude":49.1166285,"diametre":"3.14","hauteur":25,"age_estimation":"120 ans","commentaire":null,"numero":null}},{"type":"Feature","id":"vrd_esv_arb_rem.7","geometry":{"type":"Point","coordinates":[6.18020304,49.11664802]},"geometry_name":"the_geom","properties":{"fid":7,"id":21.02,"type":"R","nom_commun":"Platane commun","origine":"Europe (Hybride naturel entre Platanes d'occident et d'Orient)","nom_latin":"Platanus acerifolia","auteur":"(Aiton) Willd.","lieu":"Place St Simplice","parcelle":0,"longitude":6.180203039,"latitude":49.11664798,"diametre":"3.14","hauteur":25,"age_estimation":"120 ans","commentaire":null,"numero":null}},{"type":"Feature","id":"vrd_esv_arb_rem.8","geometry":{"type":"Point","coordinates":[6.18055983,49.11901433]},"geometry_name":"the_geom","properties":{"fid":8,"id":21.03,"type":"A","nom_commun":"Faux orme de sibérie","origine":"Caucase, Nord de l'Iran","nom_latin":"Zelkova carpinifolia","auteur":"(Pall.) K. Koch","lieu":"Jardin des Tanneurs","parcelle":0,"longitude":6.180559834,"latitude":49.11901429,"diametre":"1.88","hauteur":10,"age_estimation":"40 ans","commentaire":null,"numero":null}},{"type":"Feature","id":"vrd_esv_arb_rem.57","geometry":{"type":"Point","coordinates":[6.1717107,49.12084225]},"geometry_name":"the_geom","properties":{"fid":57,"id":31.44,"type":"A","nom_commun":"Savonnier","origine":"Chine, Corée","nom_latin":"Koelreutoria paniculata","auteur":"Laxm.","lieu":"Jardin d'Amour (Temple-Théatre)","parcelle":17,"longitude":6.171681004,"latitude":49.12084233,"diametre":"1.4","hauteur":15,"age_estimation":"70 ans","commentaire":null,"numero":null}},{"type":"Feature","id":"vrd_esv_arb_rem.9","geometry":{"type":"Point","coordinates":[6.18042238,49.11900911]},"geometry_name":"the_geom","properties":{"fid":9,"id":21.04,"type":"A","nom_commun":"Séquoia pleureur","origine":"Sierra Nevada (Horticole)","nom_latin":"Sequoïadendron giganteum 'Pendulum'","auteur":"(Lindl.)J.Buchholz","lieu":"Jardin des Tanneurs","parcelle":0,"longitude":6.180422378,"latitude":49.11900907,"diametre":"0.94","hauteur":10,"age_estimation":"40 ans","commentaire":null,"numero":null}},{"type":"Feature","id":"vrd_esv_arb_rem.10","geometry":{"type":"Point","coordinates":[6.17420931,49.12027795]},"geometry_name":"the_geom","properties":{"fid":10,"id":21.05,"type":"A","nom_commun":"Chêne pédonculé","origine":"Europe","nom_latin":"Quercus robur","auteur":"L.","lieu":"Place de Chambre","parcelle":0,"longitude":6.174209312,"latitude":49.12027791,"diametre":"0.31","hauteur":8,"age_estimation":"15 ans","commentaire":null,"numero":null}},{"type":"Feature","id":"vrd_esv_arb_rem.11","geometry":{"type":"Point","coordinates":[6.1853749,49.1181887]},"geometry_name":"the_geom","properties":{"fid":11,"id":21.06,"type":"R","nom_commun":"Platane commun","origine":"Europe (Hybride naturel entre Platanes d'occident et d'Orient)","nom_latin":"Platanus acerifolia","auteur":"(Aiton) Willd.","lieu":"Jardin des amours (pte des Allemands)","parcelle":0,"longitude":6.185374902,"latitude":49.11818866,"diametre":"3.14","hauteur":15,"age_estimation":"100 ans","commentaire":null,"numero":null}},{"type":"Feature","id":"vrd_esv_arb_rem.27","geometry":{"type":"Point","coordinates":[6.17322195,49.11556308]},"geometry_name":"the_geom","properties":{"fid":27,"id":31.12,"type":"A","nom_commun":"Paulownia imperial","origine":"Chine, Corée, Japon","nom_latin":"Paulownia tomentosa","auteur":"Steud.","lieu":"Place de la République","parcelle":0,"longitude":6.172965395,"latitude":49.11560483,"diametre":"0.63","hauteur":8,"age_estimation":"15 ans","commentaire":null,"numero":null}},{"type":"Feature","id":"vrd_esv_arb_rem.29","geometry":{"type":"Point","coordinates":[6.17279128,49.11533362]},"geometry_name":"the_geom","properties":{"fid":29,"id":31.14,"type":"A","nom_commun":"Paulownia imperial","origine":"Chine, Corée, Japon","nom_latin":"Paulownia tomentosa","auteur":"Steud.","lieu":"Place de la République","parcelle":0,"longitude":6.172440648,"latitude":49.11533122,"diametre":"0.63","hauteur":8,"age_estimation":"15 ans","commentaire":null,"numero":null}},{"type":"Feature","id":"vrd_esv_arb_rem.2","geometry":{"type":"Point","coordinates":[6.16749127,49.11792411]},"geometry_name":"the_geom","properties":{"fid":2,"id":13.02,"type":"R","nom_commun":"Platane commun","origine":"Europe (Hybride naturel entre Platanes d'occident et d'Orient)","nom_latin":"Platanus acerifolia","auteur":"(Aiton) Willd.","lieu":"Ile du Saulcy (buvette)","parcelle":112,"longitude":6.167491267,"latitude":49.11792407,"diametre":"6.28","hauteur":35,"age_estimation":"120 ans","commentaire":null,"numero":null}},{"type":"Feature","id":"vrd_esv_arb_rem.3","geometry":{"type":"Point","coordinates":[6.17988529,49.12563023]},"geometry_name":"the_geom","properties":{"fid":3,"id":13.03,"type":"R","nom_commun":"Platane commun","origine":"Europe (Hybride naturel entre Platanes d'occident et d'Orient)","nom_latin":"Platanus acerifolia","auteur":"(Aiton) Willd.","lieu":"Boulevard du Pontiffroy","parcelle":0,"longitude":6.179885294,"latitude":49.12563019,"diametre":"5.03","hauteur":40,"age_estimation":"150 ans","commentaire":null,"numero":null}},{"type":"Feature","id":"vrd_esv_arb_rem.82","geometry":{"type":"Point","coordinates":[6.17349445,49.09614933]},"geometry_name":"the_geom","properties":{"fid":82,"id":33.02,"type":"R","nom_commun":"Pin des montagnes","origine":"Europe","nom_latin":"Pinus mugo","auteur":"Turra","lieu":"parc st Chrétienne","parcelle":0,"longitude":6.173494452,"latitude":49.09614929,"diametre":"0.79","hauteur":5,"age_estimation":"80 ans","commentaire":null,"numero":null}},{"type":"Feature","id":"vrd_esv_arb_rem.13","geometry":{"type":"Point","coordinates":[6.19380422,49.10808248]},"geometry_name":"the_geom","properties":{"fid":13,"id":23.02,"type":"R","nom_commun":"Séquoïa géant","origine":"Sierra Nevada (Californie)","nom_latin":"Sequoïadendron giganteum","auteur":"(Lindl.)J.Buchholz","lieu":"Rue du Roi Albert, jardin du temple","parcelle":82,"longitude":6.193804222,"latitude":49.10808244,"diametre":"5.5","hauteur":20,"age_estimation":"120 ans","commentaire":null,"numero":null}},{"type":"Feature","id":"vrd_esv_arb_rem.14","geometry":{"type":"Point","coordinates":[6.20236025,49.11130194]},"geometry_name":"the_geom","properties":{"fid":14,"id":23.03,"type":"R","nom_commun":"Arbre de fer","origine":"Iran, Est du Caucase","nom_latin":"Parrotia persica","auteur":"C.A.Mey.","lieu":"Square Simon-Louis Frères","parcelle":0,"longitude":6.202360249,"latitude":49.1113019,"diametre":"2.2","hauteur":15,"age_estimation":"150 ans","commentaire":null,"numero":null}},{"type":"Feature","id":"vrd_esv_arb_rem.15","geometry":{"type":"Point","coordinates":[6.20226889,49.11116046]},"geometry_name":"the_geom","properties":{"fid":15,"id":23.04,"type":"R","nom_commun":"Séquoïa géant","origine":"Sierra Nevada (Californie)","nom_latin":"Sequoïadendron giganteum","auteur":"(Lindl.)J.Buchholz","lieu":"Square Simon-Louis Frères","parcelle":0,"longitude":6.202268891,"latitude":49.11116042,"diametre":"6.28","hauteur":25,"age_estimation":"150 ans","commentaire":null,"numero":null}},{"type":"Feature","id":"vrd_esv_arb_rem.16","geometry":{"type":"Point","coordinates":[6.16668518,49.11602911]},"geometry_name":"the_geom","properties":{"fid":16,"id":31.01,"type":"R","nom_commun":"Séquoïa géant","origine":"Sierra Nevada (Californie)","nom_latin":"Sequoïadendron giganteum","auteur":"(Lindl.)J.Buchholz","lieu":"Jardin des Régates","parcelle":36,"longitude":6.166685175,"latitude":49.11602907,"diametre":"5.03","hauteur":25,"age_estimation":"150 ans","commentaire":null,"numero":null}},{"type":"Feature","id":"vrd_esv_arb_rem.18","geometry":{"type":"Point","coordinates":[6.16834714,49.11650559]},"geometry_name":"the_geom","properties":{"fid":18,"id":31.03,"type":"R","nom_commun":"Métaséquoia de Chine","origine":"Chine (Hubei, Hunan, Sichuan)","nom_latin":"Metasequoia glyptostroboides","auteur":"Hu & WC.Cheng","lieu":"Jardin des Régates","parcelle":0,"longitude":6.168347143,"latitude":49.11650555,"diametre":"3.46","hauteur":15,"age_estimation":"50 ans","commentaire":null,"numero":null}},{"type":"Feature","id":"vrd_esv_arb_rem.20","geometry":{"type":"Point","coordinates":[6.16925013,49.11755189]},"geometry_name":"the_geom","properties":{"fid":20,"id":31.05,"type":"R","nom_commun":"Chêne pédonculé","origine":"Europe","nom_latin":"Quercus robur (coté Poincaré)","auteur":"L.","lieu":"Square Boufflers","parcelle":0,"longitude":6.169250129,"latitude":49.11755185,"diametre":"5.03","hauteur":15,"age_estimation":"220 ans","commentaire":"Contemporain de l'Esplanade","numero":null}},{"type":"Feature","id":"vrd_esv_arb_rem.22","geometry":{"type":"Point","coordinates":[6.17548976,49.11218737]},"geometry_name":"the_geom","properties":{"fid":22,"id":31.07,"type":"R","nom_commun":"Marronnier d'Inde","origine":"Europe","nom_latin":"Aesculus hippocastanum","auteur":"L.","lieu":"Rempart St Thiébaut/rue Chatillon","parcelle":0,"longitude":6.175489761,"latitude":49.11218733,"diametre":"3.14","hauteur":20,"age_estimation":"110 ans","commentaire":"Contemporain de la rue","numero":null}},{"type":"Feature","id":"vrd_esv_arb_rem.23","geometry":{"type":"Point","coordinates":[6.1675036,49.11617769]},"geometry_name":"the_geom","properties":{"fid":23,"id":31.08,"type":"R","nom_commun":"Erable à écorce de bouleau","origine":"Chine","nom_latin":"Acer griseum","auteur":"(Franch.) Pax","lieu":"Jardin des Régates","parcelle":0,"longitude":6.167503597,"latitude":49.11617765,"diametre":"0.79","hauteur":5,"age_estimation":"20 ans","commentaire":"Essence rare","numero":null}},{"type":"Feature","id":"vrd_esv_arb_rem.24","geometry":{"type":"Point","coordinates":[6.17386383,49.11184501]},"geometry_name":"the_geom","properties":{"fid":24,"id":31.09,"type":"R","nom_commun":"Arbre au liège de l'Amour","origine":"Asie","nom_latin":"Phellodendron amurense","auteur":"Rupr.","lieu":"Square Camoufle","parcelle":0,"longitude":6.173863829,"latitude":49.11184497,"diametre":"0.94","hauteur":8,"age_estimation":"20 ans","commentaire":"A remplacé un très vieux sujet","numero":null}},{"type":"Feature","id":"vrd_esv_arb_rem.26","geometry":{"type":"Point","coordinates":[6.17359555,49.11774767]},"geometry_name":"the_geom","properties":{"fid":26,"id":31.11,"type":"Privé","nom_commun":"Sophora","origine":"Chine","nom_latin":"Styphnolobium japonicum","auteur":"(L.) Schott","lieu":"Impasse rue des Clercs","parcelle":54,"longitude":6.173595547,"latitude":49.11774763,"diametre":"3.14","hauteur":15,"age_estimation":"A préciser","commentaire":null,"numero":null}},{"type":"Feature","id":"vrd_esv_arb_rem.30","geometry":{"type":"Point","coordinates":[6.17237088,49.11703426]},"geometry_name":"the_geom","properties":{"fid":30,"id":31.15,"type":"Privé","nom_commun":"Paulownia imperial","origine":"Chine, Corée, Japon","nom_latin":"Paulownia tomentosa","auteur":"Steud.","lieu":"rue Poncelet/En Nexirue","parcelle":4,"longitude":6.172370878,"latitude":49.11703422,"diametre":"2.98","hauteur":8,"age_estimation":"40 ans","commentaire":null,"numero":null}},{"type":"Feature","id":"vrd_esv_arb_rem.31","geometry":{"type":"Point","coordinates":[6.16939664,49.11360568]},"geometry_name":"the_geom","properties":{"fid":31,"id":31.16,"type":"R","nom_commun":"Séquoïa géant","origine":"Sierra Nevada (californie)","nom_latin":"Sequoïadendron giganteum","auteur":"(Lindl.)J.Buchholz","lieu":"Square Giraud","parcelle":21,"longitude":6.169396635,"latitude":49.11360564,"diametre":"4.87","hauteur":25,"age_estimation":"110 ans","commentaire":null,"numero":null}},{"type":"Feature","id":"vrd_esv_arb_rem.33","geometry":{"type":"Point","coordinates":[6.16936122,49.11326463]},"geometry_name":"the_geom","properties":{"fid":33,"id":31.18,"type":"R","nom_commun":"Chêne rouge d'Amérique","origine":"Amérique du Nord","nom_latin":"Quercus rubra","auteur":"L.","lieu":"Square Giraud","parcelle":21,"longitude":6.169361222,"latitude":49.11326459,"diametre":"4.71","hauteur":25,"age_estimation":"110 ans","commentaire":null,"numero":null}},{"type":"Feature","id":"vrd_esv_arb_rem.34","geometry":{"type":"Point","coordinates":[6.16929908,49.11336534]},"geometry_name":"the_geom","properties":{"fid":34,"id":31.19,"type":"R","nom_commun":"Sapin du Colorado","origine":"Amérique du Nord (Rocheuses)","nom_latin":"Abies concolor","auteur":"(Gordon) Lindl. ex Hildebr.","lieu":"Square Giraud","parcelle":21,"longitude":6.169299077,"latitude":49.1133653,"diametre":"1.88","hauteur":25,"age_estimation":"80 ans","commentaire":null,"numero":null}},{"type":"Feature","id":"vrd_esv_arb_rem.36","geometry":{"type":"Point","coordinates":[6.17300388,49.11190462]},"geometry_name":"the_geom","properties":{"fid":36,"id":31.21,"type":"Privé","nom_commun":"Hêtre pleureur","origine":"Europe (Horticole)","nom_latin":"Fagus sylvatica 'Pendula'","auteur":"L.","lieu":"Place Mondon (Chambre de Commerce)","parcelle":29,"longitude":6.173003879,"latitude":49.11190458,"diametre":"2.36","hauteur":20,"age_estimation":"100 ans","commentaire":null,"numero":null}},{"type":"Feature","id":"vrd_esv_arb_rem.88","geometry":{"type":"Point","coordinates":[6.16868127,49.1159384]},"geometry_name":"the_geom","properties":{"fid":88,"id":31.51,"type":"A","nom_commun":"Cèdre blanc ou Cèdre à encens","origine":"Amérique du Nord","nom_latin":"Calocedrus decurrens 'Aureovariegata'","auteur":"(Torr.) Florin","lieu":"Bld Poincaré","parcelle":12,"longitude":1931233,"latitude":8217719,"diametre":"0,80 m","hauteur":10,"age_estimation":"40 ans","commentaire":null,"numero":null}},{"type":"Feature","id":"vrd_esv_arb_rem.37","geometry":{"type":"Point","coordinates":[6.16846418,49.11338823]},"geometry_name":"the_geom","properties":{"fid":37,"id":31.22,"type":"Privé","nom_commun":"Pin de Weymouth (Pin blanc d'Amérique)","origine":"Amérique du Nord (région des grands lacs)","nom_latin":"Pinus strobus","auteur":"L.","lieu":"Palais du Gouverneur","parcelle":39,"longitude":6.168464182,"latitude":49.11338819,"diametre":"1.8","hauteur":10,"age_estimation":"100 ans","commentaire":null,"numero":null}},{"type":"Feature","id":"vrd_esv_arb_rem.39","geometry":{"type":"Point","coordinates":[6.16846418,49.11338823]},"geometry_name":"the_geom","properties":{"fid":39,"id":31.24,"type":"Privé","nom_commun":"Erable champêtre","origine":"Europe","nom_latin":"Acer campestre","auteur":"L.","lieu":"Palais du Gouverneur","parcelle":39,"longitude":6.168464182,"latitude":49.11338819,"diametre":"2.25","hauteur":15,"age_estimation":"100 ans","commentaire":null,"numero":null}},{"type":"Feature","id":"vrd_esv_arb_rem.40","geometry":{"type":"Point","coordinates":[6.16846418,49.11338823]},"geometry_name":"the_geom","properties":{"fid":40,"id":31.25,"type":"Privé","nom_commun":"Chêne pédonculé fastigié","origine":"Europe (Horticole)","nom_latin":"Quercus robur 'Fastigiata'","auteur":"L.","lieu":"Palais du Gouverneur","parcelle":39,"longitude":6.168464182,"latitude":49.11338819,"diametre":"2.75","hauteur":20,"age_estimation":"100 ans","commentaire":null,"numero":null}},{"type":"Feature","id":"vrd_esv_arb_rem.41","geometry":{"type":"Point","coordinates":[6.16846418,49.11338823]},"geometry_name":"the_geom","properties":{"fid":41,"id":31.27,"type":"Privé","nom_commun":"Chêne pédonculé","origine":"Europe","nom_latin":"Quercus robur","auteur":"L.","lieu":"Palais du Gouverneur","parcelle":39,"longitude":6.168464182,"latitude":49.11338819,"diametre":"3.55","hauteur":25,"age_estimation":"100 ans","commentaire":null,"numero":null}},{"type":"Feature","id":"vrd_esv_arb_rem.42","geometry":{"type":"Point","coordinates":[6.16846418,49.11338823]},"geometry_name":"the_geom","properties":{"fid":42,"id":31.28,"type":"Privé","nom_commun":"Charme commun","origine":"Europe et Asie tempérée","nom_latin":"Carpinus betulus","auteur":"L.","lieu":"Palais du Gouverneur","parcelle":39,"longitude":6.168464182,"latitude":49.11338819,"diametre":"3.3","hauteur":20,"age_estimation":"100 ans","commentaire":null,"numero":null}},{"type":"Feature","id":"vrd_esv_arb_rem.43","geometry":{"type":"Point","coordinates":[6.16846418,49.11338823]},"geometry_name":"the_geom","properties":{"fid":43,"id":31.29,"type":"Privé","nom_commun":"Noyer noir d'Amérique","origine":"Nord-est Américain (Texas, Minnesota, Ontario, Québec)","nom_latin":"Juglans nigra","auteur":"L.","lieu":"Palais du Gouverneur","parcelle":39,"longitude":6.168464182,"latitude":49.11338819,"diametre":"2.65","hauteur":20,"age_estimation":"100 ans","commentaire":null,"numero":null}},{"type":"Feature","id":"vrd_esv_arb_rem.35","geometry":{"type":"Point","coordinates":[6.17068534,49.11253288]},"geometry_name":"the_geom","properties":{"fid":35,"id":31.2,"type":"R","nom_commun":"Hêtre pourpre","origine":"Europe (Horticole)","nom_latin":"Fagus sylvatica 'Purpurea'","auteur":"L.","lieu":"Square Galliéni","parcelle":0,"longitude":6.170601448,"latitude":49.11250154,"diametre":"3.29","hauteur":20,"age_estimation":"80 ans","commentaire":null,"numero":null}},{"type":"Feature","id":"vrd_esv_arb_rem.28","geometry":{"type":"Point","coordinates":[6.17299467,49.11549909]},"geometry_name":"the_geom","properties":{"fid":28,"id":31.13,"type":"A","nom_commun":"Paulownia imperial","origine":"Chine, Corée, Japon","nom_latin":"Paulownia tomentosa","auteur":"Steud.","lieu":"Place de la République","parcelle":0,"longitude":6.172631747,"latitude":49.11553298,"diametre":"0.79","hauteur":8,"age_estimation":"15 ans","commentaire":null,"numero":71503}},{"type":"Feature","id":"vrd_esv_arb_rem.17","geometry":{"type":"Point","coordinates":[6.1678068,49.11675967]},"geometry_name":"the_geom","properties":{"fid":17,"id":31.02,"type":"R","nom_commun":"Noyer du caucase","origine":"Caucase, Nord de l'Iran","nom_latin":"Pterocarya fraxinifolia","auteur":"(Poir.) Spach","lieu":"Jardin des Régates","parcelle":0,"longitude":6.167789406,"latitude":49.11679085,"diametre":"6x1.88","hauteur":20,"age_estimation":"120 ans","commentaire":null,"numero":null}},{"type":"Feature","id":"vrd_esv_arb_rem.44","geometry":{"type":"Point","coordinates":[6.16846418,49.11338823]},"geometry_name":"the_geom","properties":{"fid":44,"id":31.3,"type":"Privé","nom_commun":"Tilleul à grandes feuilles","origine":"Ouest et Sud de l'Europe","nom_latin":"Tilia platyphyllos","auteur":"Scop.","lieu":"Palais du Gouverneur","parcelle":39,"longitude":6.168464182,"latitude":49.11338819,"diametre":"2.65","hauteur":20,"age_estimation":"100 ans","commentaire":null,"numero":null}},{"type":"Feature","id":"vrd_esv_arb_rem.45","geometry":{"type":"Point","coordinates":[6.16846418,49.11338823]},"geometry_name":"the_geom","properties":{"fid":45,"id":31.31,"type":"Privé","nom_commun":"Erable sycomore","origine":"Europe","nom_latin":"Acer pseudoplatanus","auteur":"L.","lieu":"Palais du Gouverneur","parcelle":39,"longitude":6.168464182,"latitude":49.11338819,"diametre":"2.5","hauteur":20,"age_estimation":"100 ans","commentaire":null,"numero":null}},{"type":"Feature","id":"vrd_esv_arb_rem.46","geometry":{"type":"Point","coordinates":[6.16846418,49.11338823]},"geometry_name":"the_geom","properties":{"fid":46,"id":31.32,"type":"Privé","nom_commun":"Catalpa de la Caroline","origine":"Amérique du Nord","nom_latin":"Catalpa bignonioides","auteur":"Walter","lieu":"Palais du Gouverneur","parcelle":39,"longitude":6.168464182,"latitude":49.11338819,"diametre":"3.3","hauteur":20,"age_estimation":"100 ans","commentaire":null,"numero":null}},{"type":"Feature","id":"vrd_esv_arb_rem.32","geometry":{"type":"Point","coordinates":[6.16904992,49.11375919]},"geometry_name":"the_geom","properties":{"fid":32,"id":31.17,"type":"R","nom_commun":"Hêtre","origine":"Europe","nom_latin":"Fagus sylvatica","auteur":"L.","lieu":"Square Giraud","parcelle":21,"longitude":6.169049923,"latitude":49.11375915,"diametre":"2.98","hauteur":20,"age_estimation":"110 ans","commentaire":null,"numero":null}},{"type":"Feature","id":"vrd_esv_arb_rem.76","geometry":{"type":"Point","coordinates":[6.16127004,49.10502585]},"geometry_name":"the_geom","properties":{"fid":76,"id":32.17,"type":"R","nom_commun":"Frêne à feuilles étroites","origine":"Bassin méditerranéen (Horticole)","nom_latin":"Fraxinus angustifolia 'Veltheimii'","auteur":"Vhal","lieu":"Jardin Botanique","parcelle":0,"longitude":6.161270035,"latitude":49.10502581,"diametre":"3.14","hauteur":15,"age_estimation":"150 ans","commentaire":null,"numero":null}},{"type":"Feature","id":"vrd_esv_arb_rem.77","geometry":{"type":"Point","coordinates":[6.16195483,49.10458409]},"geometry_name":"the_geom","properties":{"fid":77,"id":32.18,"type":"R","nom_commun":"Chêne pédonculé","origine":"Europe","nom_latin":"Quercus robur","auteur":"L.","lieu":"Jardin Botanique","parcelle":0,"longitude":6.161954828,"latitude":49.10458405,"diametre":"3.3","hauteur":25,"age_estimation":"150 ans","commentaire":null,"numero":null}},{"type":"Feature","id":"vrd_esv_arb_rem.78","geometry":{"type":"Point","coordinates":[6.16001404,49.10369908]},"geometry_name":"the_geom","properties":{"fid":78,"id":32.19,"type":"R","nom_commun":"Métaséquoia","origine":"Chine","nom_latin":"Metasequoia glyptostroboides","auteur":"Hu & WC.Cheng","lieu":"Jardin Botanique","parcelle":0,"longitude":6159926134,"latitude":49.10372151,"diametre":"1.88","hauteur":10,"age_estimation":"50 ans","commentaire":null,"numero":null}},{"type":"Feature","id":"vrd_esv_arb_rem.79","geometry":{"type":"Point","coordinates":[6.16380535,49.1099787]},"geometry_name":"the_geom","properties":{"fid":79,"id":32.2,"type":"A","nom_commun":"Chêne des marais","origine":"Amérique du Nord","nom_latin":"Quercus palustris","auteur":"Münchh.","lieu":"Rond point Clémenceau/St Symphorien","parcelle":0,"longitude":6.163805348,"latitude":49.10997866,"diametre":"0.63","hauteur":8,"age_estimation":"20 ans","commentaire":null,"numero":null}},{"type":"Feature","id":"vrd_esv_arb_rem.38","geometry":{"type":"Point","coordinates":[6.16846418,49.11338823]},"geometry_name":"the_geom","properties":{"fid":38,"id":31.23,"type":"Privé","nom_commun":"Hêtre commun","origine":"Europe","nom_latin":"Fagus sylvatica","auteur":"L.","lieu":"Palais du Gouverneur","parcelle":39,"longitude":6.168464182,"latitude":49.11338819,"diametre":"4.85","hauteur":20,"age_estimation":"100 ans","commentaire":null,"numero":null}},{"type":"Feature","id":"vrd_esv_arb_rem.68","geometry":{"type":"Point","coordinates":[6.16000991,49.10504231]},"geometry_name":"the_geom","properties":{"fid":68,"id":32.09,"type":"R","nom_commun":"Hêtre à feuille de fougère","origine":"Europe (Horticole)","nom_latin":"Fagus sylvatica 'Asplenifolia'","auteur":"L.","lieu":"Jardin Botanique","parcelle":0,"longitude":6.160009915,"latitude":49.10504227,"diametre":"4.4","hauteur":20,"age_estimation":"150 ans","commentaire":null,"numero":null}},{"type":"Feature","id":"vrd_esv_arb_rem.69","geometry":{"type":"Point","coordinates":[6.16124666,49.10465747]},"geometry_name":"the_geom","properties":{"fid":69,"id":32.1,"type":"R","nom_commun":"Chicot du canada","origine":"Amérique du Nord","nom_latin":"Gymnocladus dioica","auteur":"(L.)K.Koch","lieu":"Jardin Botanique","parcelle":0,"longitude":6.161246658,"latitude":49.10465743,"diametre":"2.2","hauteur":10,"age_estimation":"150 ans","commentaire":null,"numero":null}},{"type":"Feature","id":"vrd_esv_arb_rem.70","geometry":{"type":"Point","coordinates":[6.16107161,49.10513928]},"geometry_name":"the_geom","properties":{"fid":70,"id":32.11,"type":"R","nom_commun":"Tulipier de Virginie","origine":"Nord-est Américain","nom_latin":"Liriodendron tulipifera","auteur":"L.","lieu":"Jardin Botanique","parcelle":0,"longitude":6.161071609,"latitude":49.10513924,"diametre":"2.51","hauteur":20,"age_estimation":"120 ans","commentaire":null,"numero":null}},{"type":"Feature","id":"vrd_esv_arb_rem.71","geometry":{"type":"Point","coordinates":[6.16031099,49.10417004]},"geometry_name":"the_geom","properties":{"fid":71,"id":32.12,"type":"A","nom_commun":"Cèdre de l'atlas","origine":"Afrique du Nord","nom_latin":"Cedrus atlantica","auteur":"(Endl.)Manetti ex Carrière","lieu":"Jardin Botanique","parcelle":0,"longitude":6.160310993,"latitude":49.10417,"diametre":"3.76","hauteur":25,"age_estimation":"150 ans","commentaire":null,"numero":null}},{"type":"Feature","id":"vrd_esv_arb_rem.72","geometry":{"type":"Point","coordinates":[6.15956145,49.10548009]},"geometry_name":"the_geom","properties":{"fid":72,"id":32.13,"type":"R","nom_commun":"Hêtre pleureur","origine":"Europe (Horticole)","nom_latin":"Fagus sylvatica 'Pendula'","auteur":"L.","lieu":"Jardin Botanique","parcelle":0,"longitude":6159571424,"latitude":49.10547728,"diametre":"3.61","hauteur":10,"age_estimation":"150 ans","commentaire":null,"numero":null}},{"type":"Feature","id":"vrd_esv_arb_rem.86","geometry":{"type":"Point","coordinates":[6.16023286,49.10488321]},"geometry_name":"the_geom","properties":{"fid":86,"id":32.02,"type":"R","nom_commun":"Faux cyprés de Lawson","origine":"Amérique du Nord (Horticole)","nom_latin":"Chamaecyparis lawsoniana","auteur":"(A.Murray bis) Parl.","lieu":"Jardin Botanique","parcelle":39,"longitude":1930668,"latitude":8216465,"diametre":"2,67m","hauteur":10,"age_estimation":"150 ans","commentaire":null,"numero":null}},{"type":"Feature","id":"vrd_esv_arb_rem.87","geometry":{"type":"Point","coordinates":[6.16871553,49.11626148]},"geometry_name":"the_geom","properties":{"fid":87,"id":31.52,"type":"A","nom_commun":"Magnolia à grandes fleurs","origine":"Amérique du Nord","nom_latin":"Magnolia grandiflora","auteur":"L.","lieu":"Bld Poincaré","parcelle":12,"longitude":1931234,"latitude":8217755,"diametre":"0,47 m","hauteur":8,"age_estimation":"40 ans","commentaire":null,"numero":null}},{"type":"Feature","id":"vrd_esv_arb_rem.90","geometry":{"type":"Point","coordinates":[6.16800183,49.11452596]},"geometry_name":"the_geom","properties":{"fid":90,"id":31.49,"type":"R","nom_commun":"Platane commun","origine":"Europe (Hybride naturel entre Platanes d'occident et d'Orient)","nom_latin":"Platanus acerifolia","auteur":"(Aiton) Willd.","lieu":"Bld Poincaré","parcelle":0,"longitude":1931190,"latitude":8217560,"diametre":"3,14 m","hauteur":30,"age_estimation":"100 ans","commentaire":null,"numero":null}},{"type":"Feature","id":"vrd_esv_arb_rem.91","geometry":{"type":"Point","coordinates":[6.1679254,49.11440205]},"geometry_name":"the_geom","properties":{"fid":91,"id":31.48,"type":"R","nom_commun":"Platane commun","origine":"Europe (Hybride naturel entre Platanes d'occident et d'Orient)","nom_latin":"Platanus acerifolia","auteur":"(Aiton) Willd.","lieu":"Bld Poincaré","parcelle":0,"longitude":1931185,"latitude":8217546,"diametre":"3,14 m","hauteur":30,"age_estimation":"100 ans","commentaire":null,"numero":null}},{"type":"Feature","id":"vrd_esv_arb_rem.94","geometry":{"type":"Point","coordinates":[6.16846418,49.11338823]},"geometry_name":"the_geom","properties":{"fid":94,"id":31.42,"type":"Privé","nom_commun":"Faux cyprés de Lawson doré","origine":"Amérique du Nord (Horticole)","nom_latin":"Chamaecyparis lawsoniana 'Aurea'","auteur":"(A.Murray bis) Parl.","lieu":"Palais du Gouverneur","parcelle":39,"longitude":1931229,"latitude":8217435,"diametre":"6x0.40","hauteur":15,"age_estimation":"100 ans","commentaire":null,"numero":null}},{"type":"Feature","id":"vrd_esv_arb_rem.95","geometry":{"type":"Point","coordinates":[6.16846433,49.11338893]},"geometry_name":"the_geom","properties":{"fid":95,"id":31.26,"type":"Privé","nom_commun":"Faux cyprés de Lawson","origine":"Amérique du Nord (Horticole)","nom_latin":"Chamaecyparis lawsoniana","auteur":"(A.Murray bis) Parl.","lieu":"Palais du Gouverneur","parcelle":39,"longitude":1931234,"latitude":8217755,"diametre":"4x0.30","hauteur":15,"age_estimation":"100 ans","commentaire":null,"numero":null}},{"type":"Feature","id":"vrd_esv_arb_rem.96","geometry":{"type":"Point","coordinates":[6.18061172,49.1189679]},"geometry_name":"the_geom","properties":{"fid":96,"id":21.07,"type":"R","nom_commun":"Arbre de fer","origine":"Iran, Est du Caucase","nom_latin":"Parrotia persica","auteur":"C.A.Mey.","lieu":"Jardin des Tanneurs","parcelle":0,"longitude":1932089,"latitude":8218092,"diametre":"5x0,47m","hauteur":6,"age_estimation":"40 ans","commentaire":null,"numero":null}},{"type":"Feature","id":"vrd_esv_arb_rem.97","geometry":{"type":"Point","coordinates":[6.14731121,49.14002092]},"geometry_name":"the_geom","properties":{"fid":97,"id":11.01,"type":"R","nom_commun":"Séquoïa géant","origine":"Sierra Nevada (Californie)","nom_latin":"Sequoïadendron giganteum","auteur":"(Lindl.)J.Buchholz","lieu":"Rue du Coupillon","parcelle":0,"longitude":0,"latitude":0,"diametre":"6.28","hauteur":30,"age_estimation":"110","commentaire":null,"numero":null}},{"type":"Feature","id":"vrd_esv_arb_rem.98","geometry":{"type":"Point","coordinates":[6.15277871,49.13181167]},"geometry_name":"the_geom","properties":{"fid":98,"id":11.04,"type":"R","nom_commun":"Chêne pédonculé","origine":"Europe","nom_latin":"Quercus robur","auteur":"L.","lieu":"Rue de la Ronde (caserne Desvallières)","parcelle":1,"longitude":0,"latitude":0,"diametre":"2.16","hauteur":20,"age_estimation":"100","commentaire":null,"numero":null}},{"type":"Feature","id":"vrd_esv_arb_rem.99","geometry":{"type":"Point","coordinates":[6.15267954,49.13184437]},"geometry_name":"the_geom","properties":{"fid":99,"id":11.03,"type":"R","nom_commun":"Marronnier d'Inde","origine":"Europe","nom_latin":"Aesculus hippocastanum","auteur":"L.","lieu":"Rue de la Ronde (caserne Desvallières)","parcelle":1,"longitude":0,"latitude":0,"diametre":"2.8","hauteur":25,"age_estimation":"100","commentaire":null,"numero":null}},{"type":"Feature","id":"vrd_esv_arb_rem.75","geometry":{"type":"Point","coordinates":[6.16010801,49.10399558]},"geometry_name":"the_geom","properties":{"fid":75,"id":32.16,"type":"R","nom_commun":"Platane d'occident","origine":"Amérique du Nord, grands Lacs, Golfe du Mexique","nom_latin":"Platanus occidentalis","auteur":"L.","lieu":"Jardin Botanique","parcelle":0,"longitude":6.160108013,"latitude":49.10399554,"diametre":"5.97","hauteur":20,"age_estimation":"150 ans","commentaire":null,"numero":null}},{"type":"Feature","id":"vrd_esv_arb_rem.89","geometry":{"type":"Point","coordinates":[6.16801914,49.114643]},"geometry_name":"the_geom","properties":{"fid":89,"id":31.5,"type":"R","nom_commun":"Platane commun","origine":"Europe (Hybride naturel entre Platanes d'occident et d'Orient)","nom_latin":"Platanus acerifolia","auteur":"(Aiton) Willd.","lieu":"Bld Poincaré","parcelle":0,"longitude":1931196,"latitude":8217572,"diametre":"3,14 m","hauteur":30,"age_estimation":"100 ans","commentaire":null,"numero":null}},{"type":"Feature","id":"vrd_esv_arb_rem.12","geometry":{"type":"Point","coordinates":[6.19505824,49.11074799]},"geometry_name":"the_geom","properties":{"fid":12,"id":23.01,"type":"R","nom_commun":"Chêne pédonculé","origine":"Europe","nom_latin":"Quercus robur","auteur":"L.","lieu":"Rue Baudoche/rue de Raigecourt","parcelle":0,"longitude":6.195058241,"latitude":49.11074795,"diametre":"3.61","hauteur":10,"age_estimation":"200 ans","commentaire":null,"numero":45201}},{"type":"Feature","id":"vrd_esv_arb_rem.58","geometry":{"type":"Point","coordinates":[6.17195478,49.12083344]},"geometry_name":"the_geom","properties":{"fid":58,"id":31.45,"type":"R","nom_commun":"Platane commun","origine":"Europe (Hybride naturel entre Platanes d'occident et d'Orient)","nom_latin":"Platanus acerifolia","auteur":"(Aiton) Willd.","lieu":"Jardin d'Amour (Temple-Théatre)","parcelle":17,"longitude":6.171915431,"latitude":49.1208629,"diametre":"4.08","hauteur":30,"age_estimation":"200 ans","commentaire":null,"numero":null}},{"type":"Feature","id":"vrd_esv_arb_rem.25","geometry":{"type":"Point","coordinates":[6.17367557,49.11209505]},"geometry_name":"the_geom","properties":{"fid":25,"id":31.1,"type":"R","nom_commun":"If commun","origine":"Europe et Afrique du Nord","nom_latin":"Taxus baccata","auteur":"L.","lieu":"Square Camoufle","parcelle":0,"longitude":6.173807993,"latitude":49.11204451,"diametre":"1.73","hauteur":4,"age_estimation":"100 ans","commentaire":null,"numero":null}},{"type":"Feature","id":"vrd_esv_arb_rem.19","geometry":{"type":"Point","coordinates":[6.16973911,49.11721462]},"geometry_name":"the_geom","properties":{"fid":19,"id":31.04,"type":"R","nom_commun":"Chêne pédonculé","origine":"Europe","nom_latin":"Quercus robur (coté tribunal)","auteur":"L.","lieu":"Square Boufflers","parcelle":0,"longitude":6.169686391,"latitude":49.11729687,"diametre":"4.71","hauteur":15,"age_estimation":"220 ans","commentaire":"Contemporain de l'Esplanade","numero":null}},{"type":"Feature","id":"vrd_esv_arb_rem.21","geometry":{"type":"Point","coordinates":[6.16990972,49.11726531]},"geometry_name":"the_geom","properties":{"fid":21,"id":31.06,"type":"R","nom_commun":"Tilleul argenté","origine":"Est du bassin méditerranéen","nom_latin":"Tilia tomentosa","auteur":"Moench","lieu":"Square Boufflers","parcelle":0,"longitude":6.169860902,"latitude":49.11723808,"diametre":"3.77","hauteur":15,"age_estimation":"220 ans","commentaire":"Contemporain de l'Esplanade","numero":null}},{"type":"Feature","id":"vrd_esv_arb_rem.92","geometry":{"type":"Point","coordinates":[6.16706027,49.11438783]},"geometry_name":"the_geom","properties":{"fid":92,"id":31.47,"type":"R","nom_commun":"Sapin d'Espagne","origine":"Espagne","nom_latin":"Abies pinsapo","auteur":"Boiss.","lieu":"Bld Poincaré","parcelle":0,"longitude":1931126,"latitude":8217533,"diametre":"1,80 m","hauteur":25,"age_estimation":"80 ans","commentaire":null,"numero":null}},{"type":"Feature","id":"vrd_esv_arb_rem.93","geometry":{"type":"Point","coordinates":[6.16708432,49.11412073]},"geometry_name":"the_geom","properties":{"fid":93,"id":31.46,"type":"R","nom_commun":"Sapin d'Espagne","origine":"Espagne","nom_latin":"Abies pinsapo","auteur":"Boiss.","lieu":"Bld Poincaré","parcelle":0,"longitude":1931120,"latitude":8217525,"diametre":"1,57 m","hauteur":20,"age_estimation":"65 ans","commentaire":null,"numero":null}},{"type":"Feature","id":"vrd_esv_arb_rem.1","geometry":{"type":"Point","coordinates":[6.16736579,49.11789155]},"geometry_name":"the_geom","properties":{"fid":1,"id":13.01,"type":"R","nom_commun":"Platane commun","origine":"Europe (Hybride naturel entre Platanes d'occident et d'Orient)","nom_latin":"Platanus acerifolia","auteur":"(Aiton) Willd.","lieu":"Ile du Saulcy (buvette)","parcelle":112,"longitude":6.167365788,"latitude":49.11789151,"diametre":"4.56","hauteur":35,"age_estimation":"120 ans","commentaire":null,"numero":null}},{"type":"Feature","id":"vrd_esv_arb_rem.101","geometry":{"type":"Point","coordinates":[6.1512687,49.132009]},"geometry_name":"the_geom","properties":{"fid":101,"id":11.02,"type":"R","nom_commun":"Pin noir d'Autriche","origine":"Europe méridionale, Asie mineure, Afrique du Nord-ouest","nom_latin":"Pinus nigra","auteur":"J.F.Arnold","lieu":"Rue de la Ronde (caserne Desvallières)","parcelle":1,"longitude":0,"latitude":0,"diametre":"3.14","hauteur":25,"age_estimation":"80","commentaire":null,"numero":null}}],"crs":{"type":"name","properties":{"name":"urn:ogc:def:crs:EPSG::4326"}}}